port_name;lon;lat;idx_port
DEAAN;12.421;54.3810000009;1
DEBA2;13.715744;54.3624580009;2
DEBA1;14.143333;53.9766670009;3
DEBR1;13.033333;54.4333330009;4
DEBH7;13.033333;54.4333330009;5
DEBBH;12.726667;54.3716670009;6
DEBZR;13.6;54.4000000009;7
DE5B6;12.621667;54.3716670009;8
DE7B6;11.56311;54.0311670009;9
DEORD;12.533333;54.3833330009;10
DEBG8;13.356667;54.6133330009;11
DEDAP;10.025;54.5816670009;12
DEMVD;10.966667;53.9000000009;13
DEDIA;12.365;54.2950000009;14
DEDRA;13.286667;54.6183330009;15
DEECK;9.838333;54.4750000009;16
DEGXG;13.681;54.3070000009;17
DEGLY;13.468552;54.5735540009;18
DEGRO;11.12;54.4800000009;19
DEHED;10.196667;54.3750000009;20
DEHDF;14.166667;53.9600000009;21
DEKA1;14.213333;53.8633330009;22
DEKA2;13.813333;54.1083330009;23
DEKDM;11.44;53.9950000009;24
DEKZR;13.691667;54.2800000009;25
DEKLP;14.033333;54.0433330009;26
DEKSW;14;54.0566670009;27
DELAB;10.218333;54.4033330009;28
DELSA;13.833333;53.9333330009;29
DELZW;13.54;54.4400000009;30
DELPP;10.65;54.3333330009;31
DEMAO;9.993333;54.6833330009;32
DEMKB;13.966667;53.7833330009;33
DENRZ;13.61;54.3350000009;34
DENOZ;13.071667;54.5050000009;35
DENEK;13.308333;54.5716670009;36
DEND1;10.813333;53.9933330009;37
DEPRW;12.569818;54.4532250009;38
DEPRN;12.708333;54.3583330009;39
DERKZ;13.933333;53.9500000009;40
DERDI;11.478333;53.9300000009;41
DERRE;12.4;54.3500000009;42
DERZD;12.44;54.2933330009;43
DESH2;13.166667;54.5000000009;44
DESEY;13.651667;54.3533330009;45
DESHY;13.284;54.2340000009;46
DETAZ;11.216667;53.9666670009;47
DETS2;13.716667;54.2666670009;48
DETMD;11.375;53.9883330009;49
DETR2;13.966667;54.0666670009;50
DETRV;10.863333;54.9633330009;51
DEUEC;14.073333;54.0166670009;52
DEUCK;14.073333;53.7533330009;53
DEUMZ;13.178333;54.4566670009;54
DEUSD;13.936667;53.8550000009;55
DEVIA;13.433333;54.6666670009;56
DEVT2;13.166667;54.5000000009;57
DEWA1;13.136667;54.4200000009;58
DEWAY;9.876667;54.7583330009;59
DEWAR;12.083333;54.1666670009;60
DEWXX;13.903333;53.9866670009;61
DEWE1;10.291667;54.4250000009;62
DEWIK;13.286667;54.6183330009;63
DEWD1;12.536667;54.4333330009;64
DEWT2;13.29;54.6716670009;65
DEWOL;13.766667;54.0500000009;66
DEWUS;12.4;54.3500000009;67
DEZE1;13.936667;53.8550000009;68
DEZMP;13.966667;54.0666670009;69
DKAGN;10;55.1833000009;70
DKAGA;8.5759;56.7215000009;71
DKAGO;11.1915;55.2120000009;72
DKALA;8.7633;56.6444000009;73
DKALK;10.4126;57.5930000009;74
DKALH;11.24279;55.7280770009;75
DKAGE;14.7999;55.2744000009;76
DKALR;10.0774;55.8571000009;77
DKALS;12.5407;56.0750000009;78
DKAMT;8.9418;57.0074000009;79
DKANH;11.5139;56.7156000009;80
DKAAR;10.2045;56.1530000009;81
DKARN;14.7795;55.0546000009;82
DKAKV;10.306034;55.1590620009;83
DKASO;12.1002;55.9603000009;84
DKARS;15.1399;55.1086000009;85
DKASS;11.499;55.8112000009;86
DKASF;9.8999;55.2702000009;87
DKBGO;9.8081;55.3143000009;88
DKBAG;10.6734;54.7497000009;89
DKBAQ;10.385;55.4898000009;90
DKBRF;10.4726;55.0428000009;91
DKBDX;11.4858;54.8365000009;92
DKBRI;9.9058;55.4909000009;93
DKBAO;11.3916;55.1988000009;94
DKBEG;10.5101;56.1801000009;95
DKBIH;10.4993;54.9276000009;96
DKBIS;11.497;55.2067000009;97
DKBJE;9.609;55.4300000009;98
DKBKH;9.5917;57.2510000009;99
DKBGZ;10.0943;55.5638000009;100
DKBGK;9.7499;55.6252000009;101
DKBOG;12.0507;54.9154000009;102
DKBOS;10.1064;55.1049000009;103
DKBLH;15.0759;55.1542000009;104
DKBNP;10.7124;56.5337000009;105
DKBRC;12.4392;54.9952000009;106
DKBDL;9.605;55.7196000009;107
DKBGN;10.5954;55.4706000009;108
DKBRJ;9.6737;55.6628000009;109
DKBSH;9.9995;55.2015000009;110
DKCHR;15.1871;55.3205000009;111
DKDSG;9.5775;54.8936000009;112
DKDOV;8.4681;56.7216000009;113
DKDRA;12.6704;55.5938000009;114
DKDRJ;9.558;55.4978000009;115
DKDYR;10.2049;55.0709000009;116
DKEBT;10.6779;56.1998000009;117
DKEND;9.6052;54.9050000009;118
DKEJB;11.8382;55.6902000009;119
DKEJE;8.9013;56.9232000009;120
DKERR;11.4964;54.6684000009;121
DKESP;12.56;55.9929000009;122
DKFAE;9.691186;55.4883980009;123
DKFAK;12.1675;55.2193000009;124
DKFAL;10.1534;55.1477000009;125
DKFEJ;11.3772;54.9380000009;126
DKFMO;11.4159;54.9420000009;127
DKFJL;10.3812;55.0599000009;128
DKFJP;10.5885;56.5124000009;129
DKFLA;8.7945;56.8891000009;130
DKFNV;9.8033;55.4235000009;131
DKFSK;9.7183;55.4677000009;132
DKFRC;9.7591;55.5664000009;133
DKFDH;10.5363;57.4397000009;134
DKFRL;11.7638;54.7023000009;135
DKFYH;9.9789;54.9861000009;136
DKGAB;10.572242;55.5177620009;137
DKGLA;9.670715;55.4695130009;138
DKGED;11.9289;54.5764000009;139
DKGEV;12.0132;55.8216000009;140
DKGER;11.9772;55.7161470009;141
DKGLE;12.3087;56.1234000009;142
DKGJL;9.7108;57.0672000009;143
DKGLP;9.850713;56.5851020009;144
DKGLY;8.8715;56.7570000009;145
DKGRA;9.5919;54.9212000009;146
DKGRU;8.5049;56.6665000009;147
DKGRE;10.9266;56.4160000009;148
DKGRO;12.1193;54.8855000009;149
DKGDM;14.9731;55.2067000009;150
DKGDB;11.7406;54.8682000009;151
DKGUS;11.6126;55.7800000009;152
DKGYL;8.7121;56.5805000009;153
DKHAD;9.488;55.2505000009;154
DKHSU;10.1159;56.7151000009;155
DKHHV;14.7574;55.2780000009;156
DKHAE;11.5709;54.6585000009;157
DKHAN;8.6066;57.1160000009;158
DKHBB;12.1454;54.8836000009;159
DKHDH;9.6943;55.0092000009;160
DKHAI;8.8982;56.7021000009;161
DKHSL;14.7066;55.1831000009;162
DKHSO;11.887;54.7242000009;163
DKHVN;11.3366;55.7501000009;164
DKHJL;9.5999;55.3708000009;165
DKHLL;8.3393;56.6994000009;166
DKHLN;10.0365;55.1327000009;167
DKHLS;12.6133;56.0335000009;168
DKHES;12.1347;54.8234000009;169
DKHIR;9.96;57.5885000009;170
DKHJK;9.322;56.5313000009;171
DKHJO;10.485849;54.9632280009;172
DKHBO;9.7947;56.6383000009;173
DKHON;12.4557;56.0900000009;174
DKHNE;10.1671;55.1094000009;175
DKHOR;9.8432;55.8621000009;176
DKHRH;9.8925;54.9105000009;177
DKHOU;10.256571;55.9127030009;178
DKHOH;10.3669;57.0598000009;179
DKHWA;10.9555;55.1474000009;180
DKHVJ;10.2542;55.9135000009;181
DKHVE;11.611;54.6598000009;182
DKHVR;8.833008;57.0078420009;183
DKHBA;12.5339;55.9615000009;184
DKHMM;8.551;56.5397000009;185
DKHUN;11.8531;55.9585000009;186
DKHVA;9.2073;56.7009000009;187
DKJGP;11.9854;55.8552000009;188
DKJEG;8.6357;56.6517000009;189
DKJUE;10.0144;55.7136000009;190
DKJUL;9.67209;56.1206780009;191
DKJSF;8.7145;56.3689000009;192
DKJYL;12.1099;55.7510000009;193
DKLAK;10.4811;56.2828000009;194
DKKAV;12.1614;54.9966000009;195
DKKVO;9.465308;55.1177960009;196
DKKBK;11.6464;55.1779000009;197
DKKTP;12.6544;55.6359000009;198
DKKTD;10.6601;55.4507000009;199
DKKET;9.8991;54.9668000009;200
DKKIN;12.1106;55.0453000009;201
DKKBG;10.452239;55.4781820009;202
DKKLH;12.4704;54.9534000009;203
DKKLM;8.494;57.0399000009;204
DKKLV;11.8253;54.8194000009;205
DKKNB;10.4868;56.2133000009;206
DKKNU;9.601021;55.3289490009;207
DKCPH;12.5693;55.6763000009;208
DKKOG;12.182;55.4554000009;209
DKKOL;9.4734;55.4864000009;210
DKKOS;9.254265;57.1408970009;211
DKKNG;10.5206;56.1486000009;212
DKKHA;10.315;55.0124000009;213
DKKHF;10.6137;55.6092000009;214
DKKRR;11.1436;55.3295000009;215
DKKRA;11.3557;54.9156000009;216
DKKRZ;11.2636;54.7037000009;217
DKKUL;11.9137;55.9270000009;218
DKLNG;11.0199;54.8139000009;219
DKLNR;10.6428;55.9117000009;220
DKLIL;8.9639;57.1507000009;221
DKLID;15.110328;55.1459330009;222
DKLGR;9.2525;56.9663000009;223
DKLOH;10.9042;55.1340000009;224
DKLKK;9.7159;57.3704000009;225
DKLNS;9.7972;57.4727000009;226
DKLUD;12.3013;55.2418000009;227
DKLUN;10.7827;55.1396000009;228
DKLNH;11.5182;54.6473000009;229
DKLYS;11.8649;55.9426000009;230
DKMRS;10.5212;54.8544000009;231
DKMRH;10.5668;55.9458000009;232
DKMEL;14.9809;55.2008000009;233
DKMID;9.7417;55.5030000009;234
DKMIV;10.6157;55.5130000009;235
DKMOM;10.0395;54.9261000009;236
DKMOS;12.2849;55.5666000009;237
DKMOO;9.781265;56.0375270009;238
DKMOU;10.2254;56.9667000009;239
DKNVD;11.7543;55.2315000009;240
DKNAK;11.1359;54.8330000009;241
DKNAM;10.494347;56.2769110009;242
DKNED;11.99913;55.8560460009;243
DKNEX;15.1349;55.0641000009;244
DKNIB;9.6393;56.9824000009;245
DKNOH;11.8508;55.7560000009;246
DKNRY;9.746;57.4112000009;247
DKNQR;11.527405;54.9807660009;248
DKNRS;9.9032;57.0697000009;249
DKNOO;8.608818;57.0313900009;250
DKNOR;10.2607;56.0239000009;251
DKNBG;10.7924;55.3112000009;252
DKNYF;11.8679;54.7693000009;253
DKNYO;12.1955;55.0415000009;254
DKNTD;11.7298;54.6672000009;255
DKODN;11.3684;55.9717000009;256
DKODO;8.5421;56.5824000009;257
DKODS;8.5648;56.5732000009;258
DKODE;10.3909;55.3961000009;259
DKOMM;10.488;54.8723000009;260
DKOMO;11.1592;55.1707000009;261
DKONS;11.1101;54.9470000009;262
DKORQ;11.8023;55.7568000009;263
DKQSH;10.2712;56.8036000009;264
DKQSB;11.1276;57.3188000009;265
DKOES;10.9461;55.1227000009;266
DKQSV;12.032834;55.7355030009;267
DKOVE;8.414154;56.8651150009;268
DKPED;14.9922;55.0311000009;269
DKPRS;12.0435;55.1224000009;270
DKRAN;10.0358;56.4594000009;271
DKRAF;9.692;55.6195000009;272
DKREE;11.1144;55.5208000009;273
DKREF;10.4868;55.1252000009;274
DKREM;8.4909;56.5493000009;275
DKRIS;10.6342;54.8248000009;276
DKRDS;9.5438;57.2069000009;277
DKRQD;12.3776;55.2559000009;278
DKRNB;8.9415;56.5387000009;279
DKRNN;14.6976;55.0993000009;280
DKRNH;10.534728;57.4648780009;281
DKRKE;12.0909;55.6405000009;282
DKRNS;10.8727;55.7427000009;283
DKRKB;10.7163;54.9353000009;284
DKRUG;12.5327;55.8842000009;285
DKREY;9.7593;56.0919000009;286
DKRYD;12.1425;54.5429000009;287
DKSAE;10.5197;57.3342000009;288
DKSAV;11.182709;55.7232430009;289
DKSAG;9.5673;54.8820000009;290
DKSVG;14.7791;55.2872000009;291
DKSJG;12.1237;55.0600000009;292
DKSEB;9.5664;56.9617000009;293
DKSEO;11.1373;55.8811000009;294
DKSVD;11.316605;55.2005250009;295
DKSID;11.6655;55.8253000009;296
DKSIL;8.7302;56.6820000009;297
DKSJD;11.8474;55.5455000009;298
DKSSK;11.2887;55.2558000009;299
DKSKB;9.6336;55.5146000009;300
DKSKA;10.5958;57.7247000009;301
DKSBO;9.929042;56.0401510009;302
DKSKX;10.7182;55.0629000009;303
DKSKY;11.9594;55.7503000009;304
DKSKV;9.0524;56.5662000009;305
DKSIS;10.274625;57.6218510009;306
DKSSB;12.5745;55.8212000009;307
DKSSD;10.377;56.1816000009;308
DKSVH;12.599;55.7607000009;309
DKSST;9.4401;55.2899000009;310
DKSKU;12.5997;55.7161000009;311
DKSDV;12.0508;55.7909000009;312
DKSLT;12.535;55.9541000009;313
DKSLS;9.3636;57.1489000009;314
DKSNA;10.0468;55.8203000009;315
DKSNE;12.5851;56.0077000009;316
DKSNG;15.1096;55.0267000009;317
DKSNH;9.7145;55.5219000009;318
DKSOB;10.2594;54.9411000009;319
DKSQM;14.9867;55.0065000009;320
DKSQA;9.8665;55.3616000009;321
DKSGD;9.7899;54.9100000009;322
DKSNK;9.6705;55.5272000009;323
DKSRS;11.5059;54.7478000009;324
DKSOO;11.3293;55.2594000009;325
DKSOR;11.9688;54.9173000009;326
DKSPB;10.8298;54.9325000009;327
DKSTF;11.8938;54.6537000009;328
DKSTC;12.1408;55.0846000009;329
DKSTE;12.2875;54.9855000009;330
DKSRG;8.3642;56.9185000009;331
DKSTI;10.4108;55.4372000009;332
DKSSS;10.0163;56.0371000009;333
DKSTJ;10.6092;54.9593000009;334
DKSTD;10.4971;57.4933000009;335
DKSTB;9.7711;55.5381000009;336
DKSYL;12.2923;55.4032000009;337
DKSTR;8.5947;56.4912000009;338
DKSNO;10.6133;54.9038000009;339
DKSUO;10.4173;56.1578000009;340
DKSUP;10.343524;56.2464240009;341
DKSUN;9.3072;56.6040000009;342
DKSVS;11.1749;55.6088000009;343
DKSVA;15.1405;55.1364000009;344
DKSVP;11.1718;55.3656000009;345
DKSVI;11.7486;55.1054000009;346
DKTAM;8.5941;56.6331000009;347
DKTAN;9.5871;56.3528000009;348
DKTAR;12.592;55.7882000009;349
DKTRS;11.0374;54.8829000009;350
DKTEJ;14.836541;55.2483680009;351
DKTED;8.692;56.9556000009;352
DKTHP;9.1261;57.1394000009;353
DKTHO;10.6745;55.0481000009;354
DKTHN;8.2127;56.7038000009;355
DKTIO;11.168;56.3560000009;356
DKTJE;9.612;56.5127000009;357
DKTRH;9.896;55.2459000009;358
DKTRO;10.6468;55.0338000009;359
DKTVS;10.3938;54.5871000009;360
DKTYO;11.3581;55.2109000009;361
DKUDN;10.3009;56.6119000009;362
DKUDS;10.313;56.5975000009;363
DKURN;11.284204;54.9514490009;364
DKVAA;11.7783;54.9294000009;365
DKVAT;9.5637;56.9757000009;366
DKVAO;8.552856;57.0158790009;367
DKVAR;9.9552;55.5151000009;368
DKVBK;12.5641;55.8573000009;369
DKVEH;9.9465;55.5073000009;370
DKVEJ;9.5368;55.7114000009;371
DKVEM;10.6642;54.9774000009;372
DKVEN;8.6237;56.5496000009;373
DKVES;10.9232;57.2928000009;374
DKVEV;8.3208;56.7629000009;375
DKVIQ;8.6402;56.8848000009;376
DKVIV;8.6234;56.8818000009;377
DKVRK;9.2855;56.6098000009;378
DKVOE;10.4863;57.2082000009;379
EEAAK;27.155556;59.4383330008;380
EEAJV;23.1875;58.5491670008;381
EEARM;24.490278;58.0672220008;382
EEAUD;24.363889;58.4002780008;383
EEDIY;23.299444;59.0336110008;384
EEDIR;23.501;59.2100000008;385
EEDOB;24.371;58.3860000008;386
EEELB;23.516389;59.1519440008;387
EEHDM;24.478889;58.0741670008;388
EEHDI;22.446389;58.8066670008;389
EEHAN;23.551389;58.5936110008;390
EEHYA;25.620556;59.5886110008;391
EEHRA;23.513056;59.0958330008;392
EEHLT;23.048333;58.8666670008;393
EEHIR;22.133611;58.9408330008;394
EEIKL;24.357778;57.8838890008;395
EEJYA;21.973333;58.3983330008;396
EEJGA;24.044;58.2910000008;397
EEJGP;24.458333;58.0366670008;398
EEJAU;22.705556;58.7558330008;399
EEKVI;22.201667;57.9816670008;400
EEKBL;24.440556;58.0066670008;401
EEKHL;25.541944;59.4755560008;402
EEKIA;22.778056;58.8194440008;403
EEKAK;24.603056;59.4511110008;404
EEKLD;23.268361;58.4533330008;405
EEKNS;22.115556;58.4211110008;406
EEKLE;23.252778;58.6683330008;407
EEKLV;26.805556;59.4830560008;408
EEFKU;22.257222;58.3336110008;409
EEKRE;22.003333;57.9358330008;410
EEKSK;22.850278;58.7822220008;411
EEKEO;22.85;58.7808330008;412
EEKSP;22.06;58.0433330008;413
EEKVR;24.193333;58.2697220008;414
EEKMU;23.673333;58.7461110008;415
EEKBU;23.744167;59.2544440008;416
EEKJO;24.28;59.4041670008;417
EEKDP;22.264444;58.8836110008;418
EEKHN;24.020333;58.1416670008;419
EEKDV;23.548056;58.7713890008;420
EEKRA;25.778333;59.6133330008;421
EEKGV;23.073889;58.5961110008;422
EEKGS;22.971944;58.3688890008;423
EEKTT;22.485556;59.0119440008;424
EEKOR;22.036667;58.2244440008;425
EEKRG;22.464333;58.9930000008;426
EEKKV;23.233333;58.4966670008;427
EEKYB;23.297778;58.4294440008;428
EEKDK;28.100278;59.4477780008;429
EEKUI;23.383333;58.5666670008;430
EEKND;26.5415;59.5211670008;431
EEKNG;22.954722;58.3627780008;432
EEKUX;22.935;58.9490000008;433
EELAT;22.2525;58.1413890008;434
EELHG;22.091389;58.1816670008;435
EELSO;23.518889;58.6227780008;436
EELKR;22.238056;58.4988890008;437
EELLI;23.356667;58.6250000008;438
EELAS;22.2;58.1575000008;439
EELAU;22.09;58.9160000008;440
EELRI;22.948889;58.6158330008;441
EELSK;23.096667;58.4180560008;442
EELHT;22.698333;59.0683330008;443
EELML;24.411667;57.9663890008;444
EELMT;24.383611;58.4325000008;445
EELEP;24.866667;59.5513330008;446
EELPN;24.866;59.5510000008;447
EELIH;23.835556;58.6891670008;448
EELVA;24.526944;58.3855560008;449
EELIN;24.29;58.3294440008;450
EELDM;22.075833;58.0666670008;451
EELNM;25.157778;59.4658330008;452
EELIU;24.266667;58.2783330008;453
EELIY;24.255;58.2760000008;454
EELSL;24.21;59.4033330008;455
EELMS;22.613056;59.0822220008;456
EELNR;23.319444;58.5408330008;457
EELUH;23.136944;58.4344440008;458
EEMAD;24.099167;59.2797220008;459
EEMLK;22.571667;59.0313890008;460
EEMAN;24.125333;59.2220000008;461
EEMAT;23.691944;58.7322220008;462
EEMTS;23.743611;58.3600000008;463
EEMPI;23.791667;58.3433330008;464
EEMRS;24.671;59.4505000008;465
EEMRL;24.02;58.3033330008;466
EEMTP;24.375;57.9100000008;467
EEMOI;24.8;59.4119440008;468
EEMLD;22.145833;58.1619440008;469
EEMUJ;22.765;58.5902780008;470
EEMRJ;23.234722;58.4558330008;471
EEMUR;22.576667;58.2300000008;472
EEMUG;24.966667;59.5000000008;473
EENVL;28.167222;59.3461110008;474
EENMM;23.904444;59.2772220008;475
EENVA;23.665;59.2475000008;476
EEORI;23.093611;58.5625000008;477
EEORS;23.088333;58.5600000008;478
EEORJ;22.770833;58.7886110008;479
EEPTL;23.674444;58.5238890008;480
EEPYA;23.268333;58.4916670008;481
EEPKS;24.608056;58.3772220008;482
EEPAS;24.7;59.4500000008;483
EEPNL;22.311944;58.9488890008;484
EEPAA;21.986667;58.3600000008;485
EEPRP;25.671111;59.6541670008;486
EEPRN;24.5;58.3833330008;487
EEPRI;24.134167;58.2477780008;488
EEPIR;24.817778;59.4702780008;489
EEPJS;24.911944;59.4488890008;490
EEPVR;23.587222;58.5472220008;491
EEPOH;25.762222;59.6419440008;492
EEPOO;24.160278;58.2563890008;493
EEPIS;23.455556;58.7647220008;494
EEPPA;23.458333;58.9416670008;495
EEPUR;26.99182;59.4354310008;496
EEPUA;24.289167;58.3244440008;497
EEPSK;23.455;58.8983330008;498
EEPID;22.742222;58.8030560008;499
EERKL;24.568889;58.3630560008;500
EERMI;23.408056;59.0286110008;501
EERNN;22.569167;58.6872220008;502
EERNL;22.864167;58.6211110008;503
EERNM;24.478333;58.1216670008;504
EEREE;24.580556;58.3258330008;505
EERSG;22.113889;58.4697220008;506
EERHK;23.428333;58.9050000008;507
EERON;24.793167;59.5585000008;508
EERYH;23.515833;58.7061110008;509
EERGR;22.82;59.0000000008;510
EERMS;22.5;58.2000000008;511
EEROO;21.873889;58.2630560008;512
EERTJ;26.380278;59.5500000008;513
EESRS;23.611111;58.9961110008;514
EESEE;22.056111;57.9130560008;515
EESRK;23.138056;58.4341670008;516
EESLE;22.253611;58.1652780008;517
EESRV;23.0325;58.8244440008;518
EESNJ;23.651111;58.9891670008;519
EESEB;22.318333;58.5658330008;520
EESTE;24.056111;58.2763890008;521
EESGT;24.0025;58.1547220008;522
EESSM;22.639722;58.2297220008;523
EESLM;27.737;59.4223330008;524
EESLP;27.769167;59.3988890008;525
EESIN;24.628611;58.3900000008;526
EESTM;23.199444;58.5105560008;527
EESOE;22.593611;58.6175000008;528
EESPH;23.538333;59.2130560008;529
EESTS;23.749167;58.7213890008;530
EESUS;22.908333;58.9768330008;531
EETAL;22.978333;58.6033330008;532
EETHK;22.583889;59.0919440008;533
EETAU;23.569722;58.9886110008;534
EETHV;22.949167;58.9594440008;535
EETPL;25.574333;59.6106670008;536
EETMA;23.61;58.6933330008;537
EETEH;22.254722;58.1702780008;538
EETLS;23.431111;59.0597220008;539
EETIL;24.487778;59.4558330008;540
EETOI;27.533333;59.4266670008;541
EETOP;23.501111;58.8444440008;542
EETOS;23.994722;58.3447220008;543
EETYE;23.989722;58.3094440008;544
EETRE;24.385;57.9183330008;545
EETSI;25.522222;59.5191670008;546
EETYC;25.785556;59.6186110008;547
EETYD;21.92;58.4963890008;548
EETJA;22.933333;58.3333330008;549
EEUND;23.178056;58.4588890008;550
EEUNG;23.146667;58.4600000008;551
EEULU;24.557222;58.2811110008;552
EEUUR;25.545833;59.4886110008;553
EEVST;23.844167;58.3547220008;554
EEVRA;24.32;58.3819440008;555
EEVNO;25.683889;59.6161110008;556
EEVAR;23.753823;58.4331340008;557
EEVSE;22.4;58.5750000008;558
EEVEE;22.0505;58.4616670008;559
EEVRN;22.309722;58.5175000008;560
EEVHP;23.884444;59.2691670008;561
EEVIR;23.51;58.5750000008;562
EEVVS;23.569167;58.5791670008;563
EEVDU;24.02;58.3086110008;564
EEVOI;24.468333;58.2150000008;565
EEVKA;21.873611;58.2633330008;566
EEVRK;23.198611;58.6819440008;567
LTKLJ;21.116667;55.7166670009;568
LTNID;21.06391;56.0762420009;569
LTPLQ;21.065356;55.9196700009;570
LVLPX;21.016667;56.5166670009;571
LVMRX;23.1;57.3333330009;572
LVRIX;24.106389;56.9488890009;573
LVROJ;22.804906;57.5082470009;574
LVSAL;24.35;57.7500000009;575
LVSKU;24.433333;57.3166670009;576
LVVNT;21.533333;57.4000000009;577
NOOSL;10.733333;59.9000000008;578
PLCHP;18.371667;54.8050000009;579
PLCPY;15.985;54.2516670009;580
PLDKI;16.306667;54.3750000009;581
PLDAR;16.38;54.4400000009;582
PLDZN;14.723333;54.0200000009;583
PLDWI;15.39;54.1566670009;584
PLGDN;18.55;54.5233330009;585
PLJAL;16.536667;54.5383330009;586
PLJAT;18.671667;54.6900000009;587
PLKTR;19.22;54.3516670009;588
PLKUZ;18.575;54.7333330009;589
PLLEA;17.55;54.7666670009;590
PLMZZ;15.285;54.1383330009;591
PLMKZ;18.941667;54.3400000009;592
PLNIC;15.075;54.0916670009;593
PLOBL;19.586667;54.4333330009;594
PLPI2;19.586667;54.4333330009;595
PLPUC;18.406667;54.7200000009;596
PLREW;18.491667;54.6333330009;597
PLRWL;15.016667;54.0833330009;598
PLROW;17.05;54.6666670009;599
PLSUZ;19.44;54.2866670009;600
PLSWR;18.403333;54.7566670009;601
PLSBN;18.935;54.3350000009;602
PLSJK;14.29;53.8500000009;603
PLSJP;14.368333;53.8850000009;604
PLUNI;16.09;54.2700000009;605
PLUMS;15.751667;54.2166670009;606
PLWLA;18.418333;54.7966670009;607
SEGOT;11.901383;57.6913170009;608
SESMO;11.225;58.3533330008;609
SESTO;18.071;59.3283330008;610
DE4AV;9.933333333;54.63333333;611
DE8AN;14.270639;53.738711;612
DEAHC;14.19333333;53.94333333;613
DEFLF;9.43;54.80166667;614
DEGRD;13.38333333;54.08333333;615
DEHHF;10.98333333;54.37333333;616
DEKAP;9.935;54.65833333;617
DEKEL;10.15666667;54.33333333;618
DEKSL;13.75666667;54.12166667;619
DELAU;13.50833333;54.34166667;620
DELBC;10.7;53.89;621
DENDT;10.81166667;54.105;622
DEORT;11.05166667;54.44666667;623
DEPUT;11.19166667;54.48833333;624
DERSK;12.12333333;54.09333333;625
DESAS;13.64333333;54.51166667;626
DESTD;10.17166667;54.43666667;627
DESTL;13.09833333;54.31833333;628
DEWIS;11.45333333;53.89666667;629
DEZIN;13.96666667;54.06666667;630
DEZIS;12.68333333;54.43333333;631
DKAAB;9.4213;55.0449;632
DKAAL;9.9163;57.0493;633
DKAGH;8.2547;56.778;634
DKASA;10.4039;57.1482;635
DKBRA;9.0288;56.7989;636
DKBRR;12.4392;54.9952;637
DKDKD;10.2533;56.9054;638
DKEJS;9.2513;57.1017;639
DKFDS;12.0662;55.8371;640
DKKAR;12.2294;55.5702;641
DKLIS;12.0257;56.0126;642
DKMNK;10.5595;55.4595;643
DKMRR;9.9758;56.6486;644
DKNIV;12.4866;55.9371;645
DKNYM;8.8631;56.7945;646
DKNYS;11.6644;55.9223;647
DKROD;11.3586;54.663;648
DKSVN;11.1718;55.3656;649
DKVIB;9.2463;56.259;650
PLCHL;18.50333333;54.755;651
PLFBK;19.67333333;54.355;652
PLGDY;18.78833333;54.345;653
PLHEL;18.79666667;54.605;654
PLKOL;15.55333333;54.18666667;655
PLKPI;14.76833333;53.97166667;656
PLLUN;14.42166667;53.86666667;657
PLMID;14.455;53.93666667;658
PLNWA;14.28333333;53.72166667;659
PLSOP;18.575;54.43666667;660
PLSPA;14.61833333;53.65;661
PLSWI;14.25833333;53.90333333;662
PLTBZ;14.51833333;53.655;663
PLTMO;19.52;54.32166667;664
PLUST;16.85333333;54.58666667;665
PLWLI;14.61666667;53.83833333;666
SEAHU;14.308333;55.925;667
SEANG;12.841667;56.266667;668
SEBBH;12.905;55.756667;669
SEBID;11.93333333;57.56666667;670
SEBJR;13.01666667;55.71666667;671
SEDHN;18.689117;59.307717;672
SEELO;11.46666667;58.18333333;673
SEFAG;12.5;56.916667;674
SEFAR;16.45;56.65;675
SEFSA;12.16666667;57.31666667;676
SEGNA;17.426767;62.02975;677
SEGRD;11.418333;58.216667;678
SEGRE;11.256667;58.683333;679
SEGRM;11.22;58.697;680
SEHAA;23.906667;65.771667;681
SEHAD;12.866667;56.666667;682
SEHAK;18.589167;60.061167;683
SEHAN;18.461667;60.173333;684
SEHLD;20.35985;63.694433;685
SEHND;17.953883;62.640367;686
SEHNF;19.9;63.63333333;687
SEHNO;11.63333333;57.68333333;688
SEHOG;12.55;56.198333;689
SEHRD;11.84;57.817333;690
SEHUN;11.296667;58.441667;691
SEHUV;17.121667;61.725;692
SEKAA;15.591667;56.168333;693
SEKAN;14.865;56.168333;694
SEKAX;23.140783;65.852683;695
SEKGM;12.91666667;55.53333333;696
SEKKS;11.51666667;58.01666667;697
SEKLD;11.53333333;57.95;698
SEKLR;16.373333;56.66;699
SEKLV;11.93333333;57.53333333;700
SEKPS;19.051667;59.715;701
SEKUA;12.075;57.486667;702
SELAA;12.849;55.8615;703
SELIM;12.923667;55.5865;704
SELJO;18.61666667;59.51666667;705
SELJU;17.145;61.206667;706
SELOF;16.68333333;57.9;707
SELOM;13.066667;55.675;708
SELYS;11.443333;58.275;709
SEMDM;11.678667;58.43835;710
SEMEL;12.4645;58.701917;711
SEMLE;12.5;56.28333333;712
SEMLO;11.471667;58.073333;713
SEMMA;13;55.6;714
SEMOJ;18.83333333;59.4;715
SEMON;16.453333;57.041667;716
SEMSD;11.596167;57.887667;717
SEMUK;11.677033;58.46555;718
SENOG;19.41666667;63.66666667;719
SENOT;17.1478;60.931483;720
SENRK;16.26;58.61;721
SENYM;14.472017;56.038867;722
SENYN;17.956667;58.9;723
SENYO;17.16666667;58.91666667;724
SEOER;18.716667;63.288333;725
SEOSH;18.377833;60.2605;726
SEOSK;16.458333;57.266667;727
SEOSO;17.85;58.96666667;728
SEOXE;17.109167;58.657467;729
SEPIT;21.496667;65.32;730
SERAM;17.86795;62.816533;731
SERNB;15.303333;56.176667;732
SERNG;11.560167;57.938333;733
SERUR;18.766667;59.2775;734
SERUV;19.43333333;63.53333333;735
SESAE;17.161667;61.263333;736
SESDL;17.3;62.38333333;737
SESIM;14.358333;55.558333;738
SESKM;11.547167;57.988167;739
SESKR;11.655667;58.381333;740
SESMD;11.166667;58.933333;741
SESND;11.8325;58.138167;742
SESNR;12.85;55.41666667;743
SESOE;17.61666667;59.2;744
SESOG;16.413333;58.475;745
SESOL;14.591667;56.05;746
SESOO;17.07;61.306667;747
SESRU;17.8;59;748
SESSR;17.406667;60.650833;749
SESTE;11.816667;58.066667;750
SESTR;11.761667;57.617333;751
SESTU;17.110733;61.30555;752
SESZI;12.95;55.41666667;753
SETRL;11.771167;57.726167;754
SETRS;17.555;58.891667;755
SETSO;14.651667;56;756
SEUDD;11.933333;58.35;757
SEUGG;12.6105;56.815;758
SEUGN;11.297167;58.453;759
SEUME;20.25;63.83333333;760
SEVAG;12.25;57.1;761
SEVAL;17.179517;61.1788;762
SEVBY;18.283333;57.65;763
SEVEL;13.03333333;55.46666667;764
SEVHD;17.499167;58.9465;765
SEVVK;16.653333;57.756667;766
SEVXH;18.33333333;59.4;767
SEYNG;14.23;55.883167;768
SEYST;13.818333;55.425;769
DEHTU;10.149964544;54.368902736;770
DKLIN;10.533333333;55.466666667;771
DKHSB;8.622294426;56.359588623;772
PLTZW;18.767805555;54.084731119;773
DEPTD;12.438567;54.221583001;774
PLNOW;18.661798961;54.411150034;775
DEMUK;13.583333333;54.483333333;776
DKVAE;12.37718957;55.608591799;777
DKTUB;12.581545733;55.725906615;778
SEKVH;12.718345783;56.005881138;779
SEBAS;12.834238156;56.418647472;780
SEBUV;18.266925124;57.032519695;781
SEDON;11.798927459;57.594635066;782
SEFSD;19.058308284;57.864216653;783
NOKVF;7.300739319;58.033306375;784
SELDO;12.15;58.033333333;785
NOSNE;7.818070888;58.097858429;786
EETGI;22.7263242;58.5798397;787
NOTVE;8.9279785;58.621951501;788
SEDJN;16.334199998;58.632039931;789
NORIS;9.249428575;58.715056238;790
EESVI;23.312467113;58.970242372;791
NOTJO;10.3921085;59.117998001;792
NONTY;10.381880942;59.166921268;793
NOSTK;10.295983;59.222274501;794
SELOU;18.147693617;59.332507813;795
NORYG;10.6674375;59.336906501;796
SEHBV;17.816666667;59.366666667;797
SESUD;18.05;59.383333333;798
EELSA;25.7192545;59.582100001;799
NOSDX;10.2069235;59.586599501;800
NOFAX;10.5939275;59.736634001;801
NOASK;10.499459208;59.78375059;802
NOBAR;10.65;59.916666667;803
FISTR;22.86831427;60.187173118;804
FIPRV;25.666808149;60.385674622;805
FIVKO;26.25;60.4;806
FIKUS;21.354703;60.548259001;807
FIMTL;21.494177029;61.591789776;808
SEORT;17.366666667;62.4;809
FIKRO;21.518258;63.055359001;810
FIUKP;22.539461136;63.516384125;811
SEOBB;20.326634417;63.699926985;812
FIRAH;23.716405034;64.219549556;813
SEBUR;21.245288557;64.61866168;814
SEROR;21.283333333;64.666666667;815
SESKE;21.2308712;64.690948486;816
FIHAU;25.352695465;65.173667908;817
SEHAH;21.633333333;65.233333333;818
SENJA;22.146414123;65.582822218;819
DENHO;10.803527832;54.09387207;820
DEANK;13.693481445;53.860107422;821
DEDMN;13.030517578;53.906677246;822
DEBSK;11.189086914;54.421325684;823
DKARK;10.407897949;54.894287109;824
DKAVK;10.256530762;55.036499023;825
DKSDO;10.471923828;55.041870117;826
DKVSV;10.786071777;55.139709473;827
DKASN;9.883911133;55.27130127;828
DKLYO;9.758728027;55.518310547;829
DKEDL;10.272277832;55.762084961;830
DKKOK;10.530090332;55.798706055;831
DKSLV;10.548278809;55.864685059;832
DKTNO;10.454528809;55.950500488;833
DKSSV;10.348083496;56.246520996;834
DKKLP;8.605712891;56.519897461;835
DKDAS;10.038330078;56.683105469;836
DKKON;10.065673828;56.686706543;837
DKTYB;8.218322754;56.69708252;838
DKDAN;10.050292969;56.699707031;839
DKSUE;9.174072266;56.709472656;840
DKNUD;8.497070312;56.752929687;841
DKFGS;8.917907715;56.980285645;842
DKROR;9.971923828;57.065673828;843
PLELB;19.400085449;54.277893066;844
RUBLT;19.906921387;54.632873535;845
RUKGD;20.47668457;54.704101562;846
DKASK;11.483276367;54.88470459;847
DKVNG;14.732299805;55.245483398;848
SETRG;13.1513045;55.370105;849
DKAVE;12.482910156;55.601074219;850
DKORO;11.801086426;55.756530762;851
DKKBY;11.885070801;55.815490723;852
DKSJO;11.300476074;55.974487305;853
LTBOT;21.070495605;56.038330078;854
SEHEL;12.688819;56.0438795;855
SEDEG;16.407287598;56.350097656;856
SEBEA;16.086914062;56.377502441;857
SEMOR;16.380493164;56.530273437;858
SEJAT;16.54510498;57.097290039;859
SERNH;18.491882324;57.172485352;860
SEGKV;17.08807373;57.348876953;861
SEKLI;18.183898926;57.388305664;862
SESLI;18.809875488;57.702087402;863
SEGUN;16.540100098;57.724304199;864
SESUR;12.008911133;57.83770752;865
SESUS;18.799926758;57.843688965;866
SEKPH;18.788513184;57.849304199;867
SEBOH;12.00769043;57.853881836;868
SEGAM;16.41809082;57.889099121;869
SENOL;12.061889648;57.92388916;870
SEWAL;11.701293945;58.012878418;871
NOMAN;7.468078613;58.018493652;872
SEGOA;12.142089844;58.106506348;873
NOKRS;8.004699707;58.144104004;874
SEVAK;16.605712891;58.203491211;875
NOLIL;8.374694824;58.241271973;876
SETHN;12.315673828;58.313110352;877
NOGTD;8.603881836;58.33807373;878
SEVGN;12.375488281;58.353271484;879
SEBRO;11.433731078;58.353900142;880
SEKUN;11.245910645;58.364929199;881
SEVAN;12.330505371;58.385498047;882
NOARE;8.76751709;58.457702637;883
SEFJA;11.28112793;58.600097656;884
NOKRA;9.416687012;58.867492676;885
SESTV;17.780273437;58.949279785;886
NOLAR;10.031494141;59.049072266;887
SEKGG;17.78527832;59.096496582;888
NOHAL;11.385314941;59.118103027;889
NOSAD;10.225891113;59.12689209;890
NOGVL;9.652709961;59.152099609;891
NOBRG;10.950073242;59.192871094;892
SEUND;17.533325195;59.266906738;893
SEBER;18.161682129;59.318908691;894
NOTON;10.512788382;59.323826681;895
SEGUB;18.378479004;59.326904297;896
SEBLV;18.116271973;59.347900391;897
NOBRR;10.497924805;59.417297363;898
NOMSS;10.65447998;59.429321289;899
NOHOL;10.317321777;59.49029541;900
NODRM;10.233520508;59.734130859;901
SENOE;18.714477539;59.75769043;902
FIHKO;22.963317871;59.819702148;903
FIKVH;23.225708008;59.878295898;904
RULED;30.197509766;59.893493652;905
FILAP;23.262084961;59.900085449;906
FISKB;23.314697266;59.909301758;907
FIKKR;20.894287109;59.946105957;908
FITAI;23.427307129;59.985900879;909
RUKDT;29.753295898;59.990478516;910
FIFOG;20.422485352;60.015075684;911
FIDLS;22.511474609;60.015686035;912
FIINK;24.008728027;60.043273926;913
FIDRA;22.472900391;60.074890137;914
FIKNT;24.377685547;60.083496094;915
FIMHQ;19.931274414;60.085876465;916
FIPOH;23.553710937;60.096496582;917
SEGRH;18.817504883;60.098876953;918
FIFOR;22.862915039;60.101501465;919
FILAN;20.298095703;60.117126465;920
FIESP;24.624328613;60.155273437;921
FIHEL;24.923563;60.1556475;922
FIKOR;21.557312012;60.17590332;923
FINAU;21.91229248;60.194091797;924
FIKIM;22.854125977;60.194885254;925
FIECK;19.61730957;60.196289062;926
FIHOU;21.372070312;60.225280762;927
FIGDB;20.01550293;60.227294922;928
FIFAR;20.012695312;60.238708496;929
FITEI;22.946289062;60.254882812;930
FISIP;25.352294922;60.264099121;931
FIKUM;20.785705566;60.288696289;932
FIPAR;22.303894043;60.296875;933
FISKV;25.5526275;60.307724;934
FITOK;25.577514648;60.334472656;935
RUPRI;28.716308594;60.335327148;936
FISAL;23.084472656;60.367492676;937
FIRYM;21.952880859;60.378479004;938
FIISN;26.015319824;60.392883301;939
FIINI;21.381286621;60.40447998;940
SEFOR;18.209899902;60.407287598;941
FILOV;26.258911133;60.410095215;942
FIBRA;21.0546875;60.428527832;943
FIPER;26.064086914;60.430480957;944
FITKU;22.217529297;60.434692383;945
FIVEL;21.649902344;60.460876465;946
FINLI;22.015075684;60.465087891;947
FIKTK;26.950806679;60.472467934;948
FIRUO;26.466125488;60.487304687;949
FITVS;21.598510742;60.555480957;950
FIHMN;27.194519043;60.562927246;951
RUVYS;28.569519043;60.624084473;952
SEGVX;17.225891113;60.691894531;953
RUVYG;28.742126465;60.715698242;954
FIUKI;21.37890625;60.795898437;955
FIRAU;21.477478027;61.127685547;956
SEALA;17.161682129;61.214294434;957
FIEJO;21.49810791;61.246276855;958
FILUV;21.50970459;61.414489746;959
FIPOR;21.79309082;61.492492676;960
SEIGG;17.099914551;61.641479492;961
FIMER;21.481506348;61.848693848;962
SESTA;17.346130371;61.894897461;963
FIKRS;21.31628418;62.257873535;964
SESTK;17.368530273;62.332702637;965
FIKAS;21.218505859;62.35949707;966
SEKUB;17.335693359;62.385681152;967
SETUN;17.389892578;62.412475586;968
SEVIV;17.382080078;62.480285645;969
SEOST;17.332885742;62.481689453;970
SESOR;17.502075195;62.496704102;971
SEUTA;17.934326172;62.768127441;972
SELUG;17.919128418;62.92010498;973
SEVAJ;17.710693359;62.976928711;974
SEBOL;17.689880371;62.995483398;975
FIVAA;21.606079102;63.087097168;976
SEDOM;18.730285645;63.263671875;977
SEHUS;19.155090332;63.327880859;978
FIPRS;22.690673828;63.713500977;979
FIKOK;23.037109375;63.836730957;980
FIKJO;23.947509766;64.25769043;981
FIRTR;24.41192627;64.659729004;982
FIRAA;24.463928223;64.682495117;983
SESFT;21.243713379;64.684875488;984
FIOUL;25.417480469;65.000305176;985
SELLA;22.165893555;65.57989502;986
FIKEM;24.537109375;65.658508301;987
FITOR;24.15612793;65.75390625;988
SEKXV;23.283508301;65.790283203;989
SETOE;22.675720215;65.902099609;990
NOBRO;10.538822876;59.85224364;991
SEFLI;16.590211578;57.552723898;992
SEELL;14.8188415;56.1566525;993
